<?xml version="1.0" encoding="utf-8"?>
<ArrayOfVolunteer>
  <Volunteer>
    <Id>385820320</Id>
    <Name>David Rosen</Name>
    <Phone>0501234567</Phone>
    <Email>david@example.com</Email>
    <Role>Manager</Role>
    <IsActive>true</IsActive>
    <DistanceKind>Aerial</DistanceKind>
    <Address>10 King David St, Jerusalem, Israel</Address>
    <Latitude>32.20260080967803</Latitude>
    <Longitude>34.436039786598506</Longitude>
    <MaxDistance>44</MaxDistance>
  </Volunteer>
  <Volunteer>
    <Id>235607097</Id>
    <Name>Yael Cohen</Name>
    <Phone>0527654321</Phone>
    <Email>yael@example.com</Email>
    <Role>Regular</Role>
    <IsActive>true</IsActive>
    <DistanceKind>Ground</DistanceKind>
    <Address>48 Allenby St, Tel Aviv-Yafo, Israel</Address>
    <Latitude>32.224632653838654</Latitude>
    <Longitude>34.521588045410105</Longitude>
  </Volunteer>
  <Volunteer>
    <Id>324223843</Id>
    <Name>Moshe Levi</Name>
    <Phone>0549876543</Phone>
    <Email>moshe@example.com</Email>
    <Role>Regular</Role>
    <IsActive>true</IsActive>
    <DistanceKind>Aerial</DistanceKind>
    <Address>40 HaNassi Blvd, Haifa, Israel</Address>
    <Latitude>31.13883368981227</Latitude>
    <Longitude>35.41750804722657</Longitude>
    <MaxDistance>24</MaxDistance>
  </Volunteer>
  <Volunteer>
    <Id>250033847</Id>
    <Name>Shiran Bar</Name>
    <Phone>0531237894</Phone>
    <Email>shiran@example.com</Email>
    <Role>Regular</Role>
    <IsActive>true</IsActive>
    <DistanceKind>Ground</DistanceKind>
    <Address>31 Rager Blvd, Beer Sheva, Israel</Address>
    <Latitude>31.108386677479963</Latitude>
    <Longitude>35.92506686156258</Longitude>
  </Volunteer>
  <Volunteer>
    <Id>301569431</Id>
    <Name>Noa Amar</Name>
    <Phone>0505678910</Phone>
    <Email>noa@example.com</Email>
    <Role>Regular</Role>
    <IsActive>true</IsActive>
    <DistanceKind>Aerial</DistanceKind>
    <Address>1 Herzl St, Ashdod, Israel</Address>
    <Latitude>32.98187552214548</Latitude>
    <Longitude>35.01086960824906</Longitude>
    <MaxDistance>42</MaxDistance>
  </Volunteer>
  <Volunteer>
    <Id>293511144</Id>
    <Name>Lior Avraham</Name>
    <Phone>0523456789</Phone>
    <Email>lior@example.com</Email>
    <Role>Manager</Role>
    <IsActive>true</IsActive>
    <DistanceKind>Ground</DistanceKind>
    <Address>8 HaRav Kook St, Netanya, Israel</Address>
    <Latitude>32.28500424054752</Latitude>
    <Longitude>35.4372032945877</Longitude>
  </Volunteer>
</ArrayOfVolunteer>