<?xml version="1.0" encoding="utf-8"?>
<ArrayOfVolunteer>
  <Volunteer>
    <Id>376966090</Id>
    <Name>David Rosen</Name>
    <Phone>0597011789</Phone>
    <Email>user1@example.com</Email>
    <Role>Manager</Role>
    <IsActive>true</IsActive>
    <DistanceKind>Aerial</DistanceKind>
    <Address>10 King David St, Jerusalem</Address>
    <Latitude>31.7767</Latitude>
    <Longitude>35.2296</Longitude>
    <MaxDistance>20</MaxDistance>
  </Volunteer>
  <Volunteer>
    <Id>305158171</Id>
    <Name>Yael Cohen</Name>
    <Phone>0511550508</Phone>
    <Email>user2@example.com</Email>
    <Role>Regular</Role>
    <IsActive>true</IsActive>
    <DistanceKind>Ground</DistanceKind>
    <Address>48 Allenby St, Tel Aviv</Address>
    <Latitude>32.0635</Latitude>
    <Longitude>34.7717</Longitude>
  </Volunteer>
  <Volunteer>
    <Id>347129041</Id>
    <Name>Moshe Levi</Name>
    <Phone>0573143939</Phone>
    <Email>user3@example.com</Email>
    <Role>Regular</Role>
    <IsActive>true</IsActive>
    <DistanceKind>Aerial</DistanceKind>
    <Address>1 Herzl St, Ashdod</Address>
    <Latitude>31.8032</Latitude>
    <Longitude>34.6553</Longitude>
    <MaxDistance>43</MaxDistance>
  </Volunteer>
  <Volunteer>
    <Id>202642069</Id>
    <Name>Shiran Bar</Name>
    <Phone>0555574678</Phone>
    <Email>user4@example.com</Email>
    <Role>Regular</Role>
    <IsActive>true</IsActive>
    <DistanceKind>Ground</DistanceKind>
    <Address>40 HaNassi Blvd, Haifa</Address>
    <Latitude>32.794</Latitude>
    <Longitude>34.9896</Longitude>
  </Volunteer>
  <Volunteer>
    <Id>311914447</Id>
    <Name>Noa Amar</Name>
    <Phone>0510237757</Phone>
    <Email>user5@example.com</Email>
    <Role>Regular</Role>
    <IsActive>true</IsActive>
    <DistanceKind>Aerial</DistanceKind>
    <Address>31 Rager Blvd, Beer Sheva</Address>
    <Latitude>31.2518</Latitude>
    <Longitude>34.7913</Longitude>
    <MaxDistance>44</MaxDistance>
  </Volunteer>
  <Volunteer>
    <Id>275388510</Id>
    <Name>Lior Avraham</Name>
    <Phone>0591063211</Phone>
    <Email>user6@example.com</Email>
    <Role>Manager</Role>
    <IsActive>true</IsActive>
    <DistanceKind>Ground</DistanceKind>
    <Address>8 HaRav Kook St, Netanya</Address>
    <Latitude>32.3282</Latitude>
    <Longitude>34.856</Longitude>
  </Volunteer>
  <Volunteer>
    <Id>212761954</Id>
    <Name>Nir Shalev</Name>
    <Phone>0555283711</Phone>
    <Email>user7@example.com</Email>
    <Role>Regular</Role>
    <IsActive>true</IsActive>
    <DistanceKind>Aerial</DistanceKind>
    <Address>2 Weizmann St, Rehovot</Address>
    <Latitude>31.8936</Latitude>
    <Longitude>34.8113</Longitude>
    <MaxDistance>13</MaxDistance>
  </Volunteer>
  <Volunteer>
    <Id>215085733</Id>
    <Name>Maya Ben Ami</Name>
    <Phone>0526986180</Phone>
    <Email>user8@example.com</Email>
    <Role>Regular</Role>
    <IsActive>true</IsActive>
    <DistanceKind>Ground</DistanceKind>
    <Address>HaPalmach 2, Tiberias</Address>
    <Latitude>32.7922</Latitude>
    <Longitude>35.5315</Longitude>
  </Volunteer>
  <Volunteer>
    <Id>361033739</Id>
    <Name>Elior Hadad</Name>
    <Phone>0568804002</Phone>
    <Email>user9@example.com</Email>
    <Role>Regular</Role>
    <IsActive>true</IsActive>
    <DistanceKind>Aerial</DistanceKind>
    <Address>Herzl Blvd 1, Holon</Address>
    <Latitude>32.0144</Latitude>
    <Longitude>34.7744</Longitude>
    <MaxDistance>18</MaxDistance>
  </Volunteer>
  <Volunteer>
    <Id>214312505</Id>
    <Name>Tamar Azulay</Name>
    <Phone>0564706582</Phone>
    <Email>user10@example.com</Email>
    <Role>Regular</Role>
    <IsActive>true</IsActive>
    <DistanceKind>Ground</DistanceKind>
    <Address>4 Jabotinsky St, Bnei Brak</Address>
    <Latitude>32.0881</Latitude>
    <Longitude>34.8396</Longitude>
  </Volunteer>
  <Volunteer>
    <Id>294694656</Id>
    <Name>Hila Noy</Name>
    <Phone>0527952320</Phone>
    <Email>user11@example.com</Email>
    <Role>Manager</Role>
    <IsActive>true</IsActive>
    <DistanceKind>Aerial</DistanceKind>
    <Address>Rabin Square, Tel Aviv</Address>
    <Latitude>32.0809</Latitude>
    <Longitude>34.7806</Longitude>
    <MaxDistance>37</MaxDistance>
  </Volunteer>
  <Volunteer>
    <Id>279756362</Id>
    <Name>Avi Malka</Name>
    <Phone>0515807817</Phone>
    <Email>user12@example.com</Email>
    <Role>Regular</Role>
    <IsActive>true</IsActive>
    <DistanceKind>Ground</DistanceKind>
    <Address>Yefet St 190, Jaffa</Address>
    <Latitude>32.0495</Latitude>
    <Longitude>34.7516</Longitude>
  </Volunteer>
  <Volunteer>
    <Id>285659486</Id>
    <Name>Roni Kaplan</Name>
    <Phone>0554211591</Phone>
    <Email>user13@example.com</Email>
    <Role>Regular</Role>
    <IsActive>true</IsActive>
    <DistanceKind>Aerial</DistanceKind>
    <Address>Ben Gurion Blvd 1, Bat Yam</Address>
    <Latitude>32.0226</Latitude>
    <Longitude>34.7458</Longitude>
    <MaxDistance>34</MaxDistance>
  </Volunteer>
  <Volunteer>
    <Id>254796391</Id>
    <Name>Omer Turgeman</Name>
    <Phone>0545344102</Phone>
    <Email>user14@example.com</Email>
    <Role>Regular</Role>
    <IsActive>true</IsActive>
    <DistanceKind>Ground</DistanceKind>
    <Address>Dizengoff St 50, Tel Aviv</Address>
    <Latitude>32.0771</Latitude>
    <Longitude>34.7744</Longitude>
  </Volunteer>
  <Volunteer>
    <Id>395391596</Id>
    <Name>Dana Regev</Name>
    <Phone>0574081372</Phone>
    <Email>user15@example.com</Email>
    <Role>Regular</Role>
    <IsActive>true</IsActive>
    <DistanceKind>Aerial</DistanceKind>
    <Address>Givat Shaul, Jerusalem</Address>
    <Latitude>31.7934</Latitude>
    <Longitude>35.1814</Longitude>
    <MaxDistance>40</MaxDistance>
  </Volunteer>
  <Volunteer>
    <Id>393893429</Id>
    <Name>Yossi Gabay</Name>
    <Phone>0551570309</Phone>
    <Email>user16@example.com</Email>
    <Role>Manager</Role>
    <IsActive>true</IsActive>
    <DistanceKind>Ground</DistanceKind>
    <Address>Golda Meir Blvd, Haifa</Address>
    <Latitude>32.7993</Latitude>
    <Longitude>35.0153</Longitude>
  </Volunteer>
  <Volunteer>
    <Id>352510801</Id>
    <Name>Michal Shani</Name>
    <Phone>0563831688</Phone>
    <Email>user17@example.com</Email>
    <Role>Regular</Role>
    <IsActive>true</IsActive>
    <DistanceKind>Aerial</DistanceKind>
    <Address>Beit HaRishonim, Rishon Lezion</Address>
    <Latitude>31.9638</Latitude>
    <Longitude>34.8038</Longitude>
    <MaxDistance>9</MaxDistance>
  </Volunteer>
  <Volunteer>
    <Id>325142345</Id>
    <Name>Alon Sharabi</Name>
    <Phone>0523553180</Phone>
    <Email>user18@example.com</Email>
    <Role>Regular</Role>
    <IsActive>true</IsActive>
    <DistanceKind>Ground</DistanceKind>
    <Address>HaHistadrut 2, Hadera</Address>
    <Latitude>32.437</Latitude>
    <Longitude>34.9196</Longitude>
  </Volunteer>
  <Volunteer>
    <Id>261911603</Id>
    <Name>Neta Bachar</Name>
    <Phone>0525095556</Phone>
    <Email>user19@example.com</Email>
    <Role>Regular</Role>
    <IsActive>true</IsActive>
    <DistanceKind>Aerial</DistanceKind>
    <Address>HaPalmach St 5, Safed</Address>
    <Latitude>32.9646</Latitude>
    <Longitude>35.4962</Longitude>
    <MaxDistance>23</MaxDistance>
  </Volunteer>
  <Volunteer>
    <Id>274576941</Id>
    <Name>Gili Mizrahi</Name>
    <Phone>0579187747</Phone>
    <Email>user20@example.com</Email>
    <Role>Regular</Role>
    <IsActive>true</IsActive>
    <DistanceKind>Ground</DistanceKind>
    <Address>Keren HaYesod 12, Eilat</Address>
    <Latitude>29.5581</Latitude>
    <Longitude>34.9482</Longitude>
  </Volunteer>
</ArrayOfVolunteer>