<?xml version="1.0" encoding="utf-8"?>
<ArrayOfVolunteer>
  <Volunteer>
    <Id>259561337</Id>
    <Name>David Rosen</Name>
    <Phone>0597522431</Phone>
    <Email>user1@example.com</Email>
    <Role>Manager</Role>
    <IsActive>true</IsActive>
    <DistanceKind>Aerial</DistanceKind>
    <Address>10 King David St, Jerusalem</Address>
    <Latitude>31.7767</Latitude>
    <Longitude>35.2296</Longitude>
    <MaxDistance>16</MaxDistance>
  </Volunteer>
  <Volunteer>
    <Id>351640647</Id>
    <Name>Yael Cohen</Name>
    <Phone>0597409146</Phone>
    <Email>user2@example.com</Email>
    <Role>Regular</Role>
    <IsActive>true</IsActive>
    <DistanceKind>Ground</DistanceKind>
    <Address>48 Allenby St, Tel Aviv</Address>
    <Latitude>32.0635</Latitude>
    <Longitude>34.7717</Longitude>
  </Volunteer>
  <Volunteer>
    <Id>320907622</Id>
    <Name>Moshe Levi</Name>
    <Phone>0586233515</Phone>
    <Email>user3@example.com</Email>
    <Role>Regular</Role>
    <IsActive>true</IsActive>
    <DistanceKind>Aerial</DistanceKind>
    <Address>1 Herzl St, Ashdod</Address>
    <Latitude>31.8032</Latitude>
    <Longitude>34.6553</Longitude>
    <MaxDistance>37</MaxDistance>
  </Volunteer>
  <Volunteer>
    <Id>245212517</Id>
    <Name>Shiran Bar</Name>
    <Phone>0553835345</Phone>
    <Email>user4@example.com</Email>
    <Role>Regular</Role>
    <IsActive>true</IsActive>
    <DistanceKind>Ground</DistanceKind>
    <Address>40 HaNassi Blvd, Haifa</Address>
    <Latitude>32.794</Latitude>
    <Longitude>34.9896</Longitude>
  </Volunteer>
  <Volunteer>
    <Id>395094617</Id>
    <Name>Noa Amar</Name>
    <Phone>0526867363</Phone>
    <Email>user5@example.com</Email>
    <Role>Regular</Role>
    <IsActive>true</IsActive>
    <DistanceKind>Aerial</DistanceKind>
    <Address>31 Rager Blvd, Beer Sheva</Address>
    <Latitude>31.2518</Latitude>
    <Longitude>34.7913</Longitude>
    <MaxDistance>37</MaxDistance>
  </Volunteer>
  <Volunteer>
    <Id>268674036</Id>
    <Name>Lior Avraham</Name>
    <Phone>0516324129</Phone>
    <Email>user6@example.com</Email>
    <Role>Manager</Role>
    <IsActive>true</IsActive>
    <DistanceKind>Ground</DistanceKind>
    <Address>8 HaRav Kook St, Netanya</Address>
    <Latitude>32.3282</Latitude>
    <Longitude>34.856</Longitude>
  </Volunteer>
  <Volunteer>
    <Id>295363322</Id>
    <Name>Nir Shalev</Name>
    <Phone>0551719832</Phone>
    <Email>user7@example.com</Email>
    <Role>Regular</Role>
    <IsActive>true</IsActive>
    <DistanceKind>Aerial</DistanceKind>
    <Address>2 Weizmann St, Rehovot</Address>
    <Latitude>31.8936</Latitude>
    <Longitude>34.8113</Longitude>
    <MaxDistance>6</MaxDistance>
  </Volunteer>
  <Volunteer>
    <Id>285187214</Id>
    <Name>Maya Ben Ami</Name>
    <Phone>0510632926</Phone>
    <Email>user8@example.com</Email>
    <Role>Regular</Role>
    <IsActive>true</IsActive>
    <DistanceKind>Ground</DistanceKind>
    <Address>HaPalmach 2, Tiberias</Address>
    <Latitude>32.7922</Latitude>
    <Longitude>35.5315</Longitude>
  </Volunteer>
  <Volunteer>
    <Id>349538442</Id>
    <Name>Elior Hadad</Name>
    <Phone>0568501365</Phone>
    <Email>user9@example.com</Email>
    <Role>Regular</Role>
    <IsActive>true</IsActive>
    <DistanceKind>Aerial</DistanceKind>
    <Address>Herzl Blvd 1, Holon</Address>
    <Latitude>32.0144</Latitude>
    <Longitude>34.7744</Longitude>
    <MaxDistance>36</MaxDistance>
  </Volunteer>
  <Volunteer>
    <Id>339566376</Id>
    <Name>Tamar Azulay</Name>
    <Phone>0595216279</Phone>
    <Email>user10@example.com</Email>
    <Role>Regular</Role>
    <IsActive>true</IsActive>
    <DistanceKind>Ground</DistanceKind>
    <Address>4 Jabotinsky St, Bnei Brak</Address>
    <Latitude>32.0881</Latitude>
    <Longitude>34.8396</Longitude>
  </Volunteer>
  <Volunteer>
    <Id>229036898</Id>
    <Name>Hila Noy</Name>
    <Phone>0564441736</Phone>
    <Email>user11@example.com</Email>
    <Role>Manager</Role>
    <IsActive>true</IsActive>
    <DistanceKind>Aerial</DistanceKind>
    <Address>Rabin Square, Tel Aviv</Address>
    <Latitude>32.0809</Latitude>
    <Longitude>34.7806</Longitude>
    <MaxDistance>46</MaxDistance>
  </Volunteer>
  <Volunteer>
    <Id>269827798</Id>
    <Name>Avi Malka</Name>
    <Phone>0567369669</Phone>
    <Email>user12@example.com</Email>
    <Role>Regular</Role>
    <IsActive>true</IsActive>
    <DistanceKind>Ground</DistanceKind>
    <Address>Yefet St 190, Jaffa</Address>
    <Latitude>32.0495</Latitude>
    <Longitude>34.7516</Longitude>
  </Volunteer>
  <Volunteer>
    <Id>295410967</Id>
    <Name>Roni Kaplan</Name>
    <Phone>0567596223</Phone>
    <Email>user13@example.com</Email>
    <Role>Regular</Role>
    <IsActive>true</IsActive>
    <DistanceKind>Aerial</DistanceKind>
    <Address>Ben Gurion Blvd 1, Bat Yam</Address>
    <Latitude>32.0226</Latitude>
    <Longitude>34.7458</Longitude>
    <MaxDistance>3</MaxDistance>
  </Volunteer>
  <Volunteer>
    <Id>361548694</Id>
    <Name>Omer Turgeman</Name>
    <Phone>0560825088</Phone>
    <Email>user14@example.com</Email>
    <Role>Regular</Role>
    <IsActive>true</IsActive>
    <DistanceKind>Ground</DistanceKind>
    <Address>Dizengoff St 50, Tel Aviv</Address>
    <Latitude>32.0771</Latitude>
    <Longitude>34.7744</Longitude>
  </Volunteer>
  <Volunteer>
    <Id>268166505</Id>
    <Name>Dana Regev</Name>
    <Phone>0574664829</Phone>
    <Email>user15@example.com</Email>
    <Role>Regular</Role>
    <IsActive>true</IsActive>
    <DistanceKind>Aerial</DistanceKind>
    <Address>Givat Shaul, Jerusalem</Address>
    <Latitude>31.7934</Latitude>
    <Longitude>35.1814</Longitude>
    <MaxDistance>32</MaxDistance>
  </Volunteer>
  <Volunteer>
    <Id>315383296</Id>
    <Name>Yossi Gabay</Name>
    <Phone>0575072930</Phone>
    <Email>user16@example.com</Email>
    <Role>Manager</Role>
    <IsActive>true</IsActive>
    <DistanceKind>Ground</DistanceKind>
    <Address>Golda Meir Blvd, Haifa</Address>
    <Latitude>32.7993</Latitude>
    <Longitude>35.0153</Longitude>
  </Volunteer>
  <Volunteer>
    <Id>350208028</Id>
    <Name>Michal Shani</Name>
    <Phone>0530497633</Phone>
    <Email>user17@example.com</Email>
    <Role>Regular</Role>
    <IsActive>true</IsActive>
    <DistanceKind>Aerial</DistanceKind>
    <Address>Beit HaRishonim, Rishon Lezion</Address>
    <Latitude>31.9638</Latitude>
    <Longitude>34.8038</Longitude>
    <MaxDistance>13</MaxDistance>
  </Volunteer>
  <Volunteer>
    <Id>372873255</Id>
    <Name>Alon Sharabi</Name>
    <Phone>0537282662</Phone>
    <Email>user18@example.com</Email>
    <Role>Regular</Role>
    <IsActive>true</IsActive>
    <DistanceKind>Ground</DistanceKind>
    <Address>HaHistadrut 2, Hadera</Address>
    <Latitude>32.437</Latitude>
    <Longitude>34.9196</Longitude>
  </Volunteer>
  <Volunteer>
    <Id>317956769</Id>
    <Name>Neta Bachar</Name>
    <Phone>0528092415</Phone>
    <Email>user19@example.com</Email>
    <Role>Regular</Role>
    <IsActive>true</IsActive>
    <DistanceKind>Aerial</DistanceKind>
    <Address>HaPalmach St 5, Safed</Address>
    <Latitude>32.9646</Latitude>
    <Longitude>35.4962</Longitude>
    <MaxDistance>24</MaxDistance>
  </Volunteer>
  <Volunteer>
    <Id>294440524</Id>
    <Name>Gili Mizrahi</Name>
    <Phone>0588691972</Phone>
    <Email>user20@example.com</Email>
    <Role>Regular</Role>
    <IsActive>true</IsActive>
    <DistanceKind>Ground</DistanceKind>
    <Address>Keren HaYesod 12, Eilat</Address>
    <Latitude>29.5581</Latitude>
    <Longitude>34.9482</Longitude>
  </Volunteer>
</ArrayOfVolunteer>