<?xml version="1.0" encoding="utf-8"?>
<ArrayOfVolunteer>
  <Volunteer>
    <Id>265958826</Id>
    <Name>David Rosen</Name>
    <Phone>0501234567</Phone>
    <Email>david@example.com</Email>
    <Role>Manager</Role>
    <IsActive>true</IsActive>
    <DistanceKind>Aerial</DistanceKind>
    <Address>10 King David St, Jerusalem, Israel</Address>
    <Latitude>32.143606965517684</Latitude>
    <Longitude>34.31749757949148</Longitude>
    <MaxDistance>36</MaxDistance>
  </Volunteer>
  <Volunteer>
    <Id>291338444</Id>
    <Name>Moshe Levi</Name>
    <Phone>0549876543</Phone>
    <Email>moshe@example.com</Email>
    <Role>Regular</Role>
    <IsActive>true</IsActive>
    <DistanceKind>Aerial</DistanceKind>
    <Address>40 HaNassi Blvd, Haifa, Israel</Address>
    <Latitude>32.095037511576436</Latitude>
    <Longitude>34.248700625302746</Longitude>
    <MaxDistance>15</MaxDistance>
  </Volunteer>
  <Volunteer>
    <Id>266778852</Id>
    <Name>Shiran Bar</Name>
    <Phone>0531237894</Phone>
    <Email>shiran@example.com</Email>
    <Role>Regular</Role>
    <IsActive>false</IsActive>
    <DistanceKind>Ground</DistanceKind>
    <Address>31 Rager Blvd, Beer Sheva, Israel</Address>
    <Latitude>31.823278642151813</Latitude>
    <Longitude>34.13270698674006</Longitude>
  </Volunteer>
  <Volunteer>
    <Id>373112268</Id>
    <Name>Noa Amar</Name>
    <Phone>0505678910</Phone>
    <Email>noa@example.com</Email>
    <Role>Regular</Role>
    <IsActive>true</IsActive>
    <DistanceKind>Aerial</DistanceKind>
    <Address>1 Herzl St, Ashdod, Israel</Address>
    <Latitude>31.960243239312586</Latitude>
    <Longitude>34.446660596898596</Longitude>
    <MaxDistance>3</MaxDistance>
  </Volunteer>
  <Volunteer>
    <Id>360851714</Id>
    <Name>Lior Avraham</Name>
    <Phone>0523456789</Phone>
    <Email>lior@example.com</Email>
    <Role>Manager</Role>
    <IsActive>false</IsActive>
    <DistanceKind>Ground</DistanceKind>
    <Address>8 HaRav Kook St, Netanya, Israel</Address>
    <Latitude>31.311320062373603</Latitude>
    <Longitude>34.00688186144677</Longitude>
  </Volunteer>
  <Volunteer>
    <Id>349046351</Id>
    <Name>Yael Cohen</Name>
    <Phone>0527654321</Phone>
    <Email>yael@example.com</Email>
    <Role>Regular</Role>
    <IsActive>false</IsActive>
    <DistanceKind>Ground</DistanceKind>
    <Address>48 Allenby St, Tel Aviv-Yafo, Israel</Address>
    <Latitude>32.545930011265845</Latitude>
    <Longitude>35.150729595838236</Longitude>
  </Volunteer>
</ArrayOfVolunteer>