<?xml version="1.0" encoding="utf-8"?>
<ArrayOfVolunteer>
  <Volunteer>
    <Id>376275714</Id>
    <Name>David Rosen</Name>
    <Phone>0501234567</Phone>
    <Email>david@example.com</Email>
    <Role>Manager</Role>
    <IsActive>true</IsActive>
    <DistanceKind>Aerial</DistanceKind>
    <Address>10 King David St, Jerusalem, Israel</Address>
    <Latitude>31.50524825429851</Latitude>
    <Longitude>35.858023017166175</Longitude>
    <MaxDistance>8</MaxDistance>
  </Volunteer>
  <Volunteer>
    <Id>319660942</Id>
    <Name>Yael Cohen</Name>
    <Phone>0527654321</Phone>
    <Email>yael@example.com</Email>
    <Role>Regular</Role>
    <IsActive>true</IsActive>
    <DistanceKind>Ground</DistanceKind>
    <Address>48 Allenby St, Tel Aviv-Yafo, Israel</Address>
    <Latitude>32.650505998063146</Latitude>
    <Longitude>34.66083065129985</Longitude>
  </Volunteer>
  <Volunteer>
    <Id>331801858</Id>
    <Name>Moshe Levi</Name>
    <Phone>0549876543</Phone>
    <Email>moshe@example.com</Email>
    <Role>Regular</Role>
    <IsActive>true</IsActive>
    <DistanceKind>Aerial</DistanceKind>
    <Address>40 HaNassi Blvd, Haifa, Israel</Address>
    <Latitude>32.61063606841946</Latitude>
    <Longitude>35.85649797325107</Longitude>
    <MaxDistance>28</MaxDistance>
  </Volunteer>
  <Volunteer>
    <Id>396151988</Id>
    <Name>Noa Amar</Name>
    <Phone>0505678910</Phone>
    <Email>noa@example.com</Email>
    <Role>Regular</Role>
    <IsActive>true</IsActive>
    <DistanceKind>Aerial</DistanceKind>
    <Address>1 Herzl St, Ashdod, Israel</Address>
    <Latitude>32.03720142142849</Latitude>
    <Longitude>35.01415676308694</Longitude>
    <MaxDistance>24</MaxDistance>
  </Volunteer>
  <Volunteer>
    <Id>299635848</Id>
    <Name>Lior Avraham</Name>
    <Phone>0523456789</Phone>
    <Email>lior@example.com</Email>
    <Role>Manager</Role>
    <IsActive>true</IsActive>
    <DistanceKind>Ground</DistanceKind>
    <Address>8 HaRav Kook St, Netanya, Israel</Address>
    <Latitude>32.67311352465792</Latitude>
    <Longitude>35.37895034181242</Longitude>
  </Volunteer>
  <Volunteer>
    <Id>261333273</Id>
    <Name>Shiran Bar</Name>
    <Phone>0531237894</Phone>
    <Email>shiran@example.com</Email>
    <Role>Regular</Role>
    <IsActive>true</IsActive>
    <DistanceKind>Ground</DistanceKind>
    <Address>31 Rager Blvd, Beer Sheva, Israel</Address>
    <Latitude>31.32444485287302</Latitude>
    <Longitude>35.18716744031396</Longitude>
    <MaxDistance>500</MaxDistance>
  </Volunteer>
</ArrayOfVolunteer>