<?xml version="1.0" encoding="utf-8"?>
<ArrayOfVolunteer>
  <Volunteer>
    <Id>324940841</Id>
    <Name>David Rosen</Name>
    <Phone>0568505595</Phone>
    <Email>user1@example.com</Email>
    <Role>Manager</Role>
    <IsActive>true</IsActive>
    <DistanceKind>Aerial</DistanceKind>
    <Address>10 King David St, Jerusalem</Address>
    <Latitude>31.7767</Latitude>
    <Longitude>35.2296</Longitude>
    <MaxDistance>49</MaxDistance>
  </Volunteer>
  <Volunteer>
    <Id>392849718</Id>
    <Name>Yael Cohen</Name>
    <Phone>0566680555</Phone>
    <Email>user2@example.com</Email>
    <Role>Regular</Role>
    <IsActive>true</IsActive>
    <DistanceKind>Ground</DistanceKind>
    <Address>48 Allenby St, Tel Aviv</Address>
    <Latitude>32.0635</Latitude>
    <Longitude>34.7717</Longitude>
  </Volunteer>
  <Volunteer>
    <Id>249650479</Id>
    <Name>Moshe Levi</Name>
    <Phone>0514320912</Phone>
    <Email>user3@example.com</Email>
    <Role>Regular</Role>
    <IsActive>true</IsActive>
    <DistanceKind>Aerial</DistanceKind>
    <Address>1 Herzl St, Ashdod</Address>
    <Latitude>31.8032</Latitude>
    <Longitude>34.6553</Longitude>
    <MaxDistance>13</MaxDistance>
  </Volunteer>
  <Volunteer>
    <Id>240451553</Id>
    <Name>Shiran Bar</Name>
    <Phone>0526474217</Phone>
    <Email>user4@example.com</Email>
    <Role>Regular</Role>
    <IsActive>true</IsActive>
    <DistanceKind>Ground</DistanceKind>
    <Address>40 HaNassi Blvd, Haifa</Address>
    <Latitude>32.794</Latitude>
    <Longitude>34.9896</Longitude>
  </Volunteer>
  <Volunteer>
    <Id>249716978</Id>
    <Name>Noa Amar</Name>
    <Phone>0594851077</Phone>
    <Email>user5@example.com</Email>
    <Role>Regular</Role>
    <IsActive>true</IsActive>
    <DistanceKind>Aerial</DistanceKind>
    <Address>31 Rager Blvd, Beer Sheva</Address>
    <Latitude>31.2518</Latitude>
    <Longitude>34.7913</Longitude>
    <MaxDistance>27</MaxDistance>
  </Volunteer>
  <Volunteer>
    <Id>234688745</Id>
    <Name>Lior Avraham</Name>
    <Phone>0513356802</Phone>
    <Email>user6@example.com</Email>
    <Role>Manager</Role>
    <IsActive>true</IsActive>
    <DistanceKind>Ground</DistanceKind>
    <Address>8 HaRav Kook St, Netanya</Address>
    <Latitude>32.3282</Latitude>
    <Longitude>34.856</Longitude>
  </Volunteer>
  <Volunteer>
    <Id>230859043</Id>
    <Name>Nir Shalev</Name>
    <Phone>0594387542</Phone>
    <Email>user7@example.com</Email>
    <Role>Regular</Role>
    <IsActive>true</IsActive>
    <DistanceKind>Aerial</DistanceKind>
    <Address>2 Weizmann St, Rehovot</Address>
    <Latitude>31.8936</Latitude>
    <Longitude>34.8113</Longitude>
    <MaxDistance>41</MaxDistance>
  </Volunteer>
  <Volunteer>
    <Id>328711555</Id>
    <Name>Maya Ben Ami</Name>
    <Phone>0548547800</Phone>
    <Email>user8@example.com</Email>
    <Role>Regular</Role>
    <IsActive>true</IsActive>
    <DistanceKind>Ground</DistanceKind>
    <Address>HaPalmach 2, Tiberias</Address>
    <Latitude>32.7922</Latitude>
    <Longitude>35.5315</Longitude>
  </Volunteer>
  <Volunteer>
    <Id>232724167</Id>
    <Name>Elior Hadad</Name>
    <Phone>0596169494</Phone>
    <Email>user9@example.com</Email>
    <Role>Regular</Role>
    <IsActive>true</IsActive>
    <DistanceKind>Aerial</DistanceKind>
    <Address>Herzl Blvd 1, Holon</Address>
    <Latitude>32.0144</Latitude>
    <Longitude>34.7744</Longitude>
    <MaxDistance>25</MaxDistance>
  </Volunteer>
  <Volunteer>
    <Id>345428633</Id>
    <Name>Tamar Azulay</Name>
    <Phone>0527826450</Phone>
    <Email>user10@example.com</Email>
    <Role>Regular</Role>
    <IsActive>true</IsActive>
    <DistanceKind>Ground</DistanceKind>
    <Address>4 Jabotinsky St, Bnei Brak</Address>
    <Latitude>32.0881</Latitude>
    <Longitude>34.8396</Longitude>
  </Volunteer>
  <Volunteer>
    <Id>330851444</Id>
    <Name>Hila Noy</Name>
    <Phone>0584843592</Phone>
    <Email>user11@example.com</Email>
    <Role>Manager</Role>
    <IsActive>true</IsActive>
    <DistanceKind>Aerial</DistanceKind>
    <Address>Rabin Square, Tel Aviv</Address>
    <Latitude>32.0809</Latitude>
    <Longitude>34.7806</Longitude>
    <MaxDistance>31</MaxDistance>
  </Volunteer>
  <Volunteer>
    <Id>247873255</Id>
    <Name>Avi Malka</Name>
    <Phone>0570800526</Phone>
    <Email>user12@example.com</Email>
    <Role>Regular</Role>
    <IsActive>true</IsActive>
    <DistanceKind>Ground</DistanceKind>
    <Address>Yefet St 190, Jaffa</Address>
    <Latitude>32.0495</Latitude>
    <Longitude>34.7516</Longitude>
  </Volunteer>
  <Volunteer>
    <Id>358745638</Id>
    <Name>Roni Kaplan</Name>
    <Phone>0590810560</Phone>
    <Email>user13@example.com</Email>
    <Role>Regular</Role>
    <IsActive>true</IsActive>
    <DistanceKind>Aerial</DistanceKind>
    <Address>Ben Gurion Blvd 1, Bat Yam</Address>
    <Latitude>32.0226</Latitude>
    <Longitude>34.7458</Longitude>
    <MaxDistance>39</MaxDistance>
  </Volunteer>
  <Volunteer>
    <Id>338670462</Id>
    <Name>Omer Turgeman</Name>
    <Phone>0561152160</Phone>
    <Email>user14@example.com</Email>
    <Role>Regular</Role>
    <IsActive>true</IsActive>
    <DistanceKind>Ground</DistanceKind>
    <Address>Dizengoff St 50, Tel Aviv</Address>
    <Latitude>32.0771</Latitude>
    <Longitude>34.7744</Longitude>
  </Volunteer>
  <Volunteer>
    <Id>275591871</Id>
    <Name>Dana Regev</Name>
    <Phone>0557071065</Phone>
    <Email>user15@example.com</Email>
    <Role>Regular</Role>
    <IsActive>true</IsActive>
    <DistanceKind>Aerial</DistanceKind>
    <Address>Givat Shaul, Jerusalem</Address>
    <Latitude>31.7934</Latitude>
    <Longitude>35.1814</Longitude>
    <MaxDistance>44</MaxDistance>
  </Volunteer>
  <Volunteer>
    <Id>390575593</Id>
    <Name>Yossi Gabay</Name>
    <Phone>0513858393</Phone>
    <Email>user16@example.com</Email>
    <Role>Manager</Role>
    <IsActive>true</IsActive>
    <DistanceKind>Ground</DistanceKind>
    <Address>Golda Meir Blvd, Haifa</Address>
    <Latitude>32.7993</Latitude>
    <Longitude>35.0153</Longitude>
  </Volunteer>
  <Volunteer>
    <Id>303673287</Id>
    <Name>Michal Shani</Name>
    <Phone>0531920363</Phone>
    <Email>user17@example.com</Email>
    <Role>Regular</Role>
    <IsActive>true</IsActive>
    <DistanceKind>Aerial</DistanceKind>
    <Address>Beit HaRishonim, Rishon Lezion</Address>
    <Latitude>31.9638</Latitude>
    <Longitude>34.8038</Longitude>
    <MaxDistance>17</MaxDistance>
  </Volunteer>
  <Volunteer>
    <Id>242994408</Id>
    <Name>Alon Sharabi</Name>
    <Phone>0548934202</Phone>
    <Email>user18@example.com</Email>
    <Role>Regular</Role>
    <IsActive>true</IsActive>
    <DistanceKind>Ground</DistanceKind>
    <Address>HaHistadrut 2, Hadera</Address>
    <Latitude>32.437</Latitude>
    <Longitude>34.9196</Longitude>
  </Volunteer>
  <Volunteer>
    <Id>224693966</Id>
    <Name>Neta Bachar</Name>
    <Phone>0567121408</Phone>
    <Email>user19@example.com</Email>
    <Role>Regular</Role>
    <IsActive>true</IsActive>
    <DistanceKind>Aerial</DistanceKind>
    <Address>HaPalmach St 5, Safed</Address>
    <Latitude>32.9646</Latitude>
    <Longitude>35.4962</Longitude>
    <MaxDistance>42</MaxDistance>
  </Volunteer>
  <Volunteer>
    <Id>356387467</Id>
    <Name>Gili Mizrahi</Name>
    <Phone>0573694837</Phone>
    <Email>user20@example.com</Email>
    <Role>Regular</Role>
    <IsActive>true</IsActive>
    <DistanceKind>Ground</DistanceKind>
    <Address>Keren HaYesod 12, Eilat</Address>
    <Latitude>29.5581</Latitude>
    <Longitude>34.9482</Longitude>
  </Volunteer>
</ArrayOfVolunteer>