<?xml version="1.0" encoding="utf-8"?>
<ArrayOfVolunteer>
  <Volunteer>
    <Id>334708522</Id>
    <Name>David Rosen</Name>
    <Phone>0594522782</Phone>
    <Email>user1@example.com</Email>
    <Role>Manager</Role>
    <IsActive>true</IsActive>
    <DistanceKind>Aerial</DistanceKind>
    <Address>10 King David St, Jerusalem</Address>
    <Latitude>31.7767</Latitude>
    <Longitude>35.2296</Longitude>
    <MaxDistance>23</MaxDistance>
  </Volunteer>
  <Volunteer>
    <Id>334063539</Id>
    <Name>Yael Cohen</Name>
    <Phone>0572559680</Phone>
    <Email>user2@example.com</Email>
    <Role>Regular</Role>
    <IsActive>true</IsActive>
    <DistanceKind>Ground</DistanceKind>
    <Address>48 Allenby St, Tel Aviv</Address>
    <Latitude>32.0635</Latitude>
    <Longitude>34.7717</Longitude>
  </Volunteer>
  <Volunteer>
    <Id>218122536</Id>
    <Name>Moshe Levi</Name>
    <Phone>0539967398</Phone>
    <Email>user3@example.com</Email>
    <Role>Regular</Role>
    <IsActive>true</IsActive>
    <DistanceKind>Aerial</DistanceKind>
    <Address>1 Herzl St, Ashdod</Address>
    <Latitude>31.8032</Latitude>
    <Longitude>34.6553</Longitude>
    <MaxDistance>26</MaxDistance>
  </Volunteer>
  <Volunteer>
    <Id>345687318</Id>
    <Name>Shiran Bar</Name>
    <Phone>0543632293</Phone>
    <Email>user4@example.com</Email>
    <Role>Regular</Role>
    <IsActive>true</IsActive>
    <DistanceKind>Ground</DistanceKind>
    <Address>40 HaNassi Blvd, Haifa</Address>
    <Latitude>32.794</Latitude>
    <Longitude>34.9896</Longitude>
  </Volunteer>
  <Volunteer>
    <Id>238836054</Id>
    <Name>Noa Amar</Name>
    <Phone>0598244998</Phone>
    <Email>user5@example.com</Email>
    <Role>Regular</Role>
    <IsActive>true</IsActive>
    <DistanceKind>Aerial</DistanceKind>
    <Address>31 Rager Blvd, Beer Sheva</Address>
    <Latitude>31.2518</Latitude>
    <Longitude>34.7913</Longitude>
    <MaxDistance>16</MaxDistance>
  </Volunteer>
  <Volunteer>
    <Id>333867110</Id>
    <Name>Lior Avraham</Name>
    <Phone>0545941827</Phone>
    <Email>user6@example.com</Email>
    <Role>Manager</Role>
    <IsActive>true</IsActive>
    <DistanceKind>Ground</DistanceKind>
    <Address>8 HaRav Kook St, Netanya</Address>
    <Latitude>32.3282</Latitude>
    <Longitude>34.856</Longitude>
  </Volunteer>
  <Volunteer>
    <Id>282897404</Id>
    <Name>Nir Shalev</Name>
    <Phone>0512430192</Phone>
    <Email>user7@example.com</Email>
    <Role>Regular</Role>
    <IsActive>true</IsActive>
    <DistanceKind>Aerial</DistanceKind>
    <Address>2 Weizmann St, Rehovot</Address>
    <Latitude>31.8936</Latitude>
    <Longitude>34.8113</Longitude>
    <MaxDistance>36</MaxDistance>
  </Volunteer>
  <Volunteer>
    <Id>274695061</Id>
    <Name>Maya Ben Ami</Name>
    <Phone>0518669511</Phone>
    <Email>user8@example.com</Email>
    <Role>Regular</Role>
    <IsActive>true</IsActive>
    <DistanceKind>Ground</DistanceKind>
    <Address>HaPalmach 2, Tiberias</Address>
    <Latitude>32.7922</Latitude>
    <Longitude>35.5315</Longitude>
  </Volunteer>
  <Volunteer>
    <Id>346743155</Id>
    <Name>Elior Hadad</Name>
    <Phone>0576302270</Phone>
    <Email>user9@example.com</Email>
    <Role>Regular</Role>
    <IsActive>true</IsActive>
    <DistanceKind>Aerial</DistanceKind>
    <Address>Herzl Blvd 1, Holon</Address>
    <Latitude>32.0144</Latitude>
    <Longitude>34.7744</Longitude>
    <MaxDistance>35</MaxDistance>
  </Volunteer>
  <Volunteer>
    <Id>247011188</Id>
    <Name>Tamar Azulay</Name>
    <Phone>0511096484</Phone>
    <Email>user10@example.com</Email>
    <Role>Regular</Role>
    <IsActive>true</IsActive>
    <DistanceKind>Ground</DistanceKind>
    <Address>4 Jabotinsky St, Bnei Brak</Address>
    <Latitude>32.0881</Latitude>
    <Longitude>34.8396</Longitude>
  </Volunteer>
  <Volunteer>
    <Id>298079354</Id>
    <Name>Hila Noy</Name>
    <Phone>0571322340</Phone>
    <Email>user11@example.com</Email>
    <Role>Manager</Role>
    <IsActive>true</IsActive>
    <DistanceKind>Aerial</DistanceKind>
    <Address>Rabin Square, Tel Aviv</Address>
    <Latitude>32.0809</Latitude>
    <Longitude>34.7806</Longitude>
    <MaxDistance>25</MaxDistance>
  </Volunteer>
  <Volunteer>
    <Id>224481761</Id>
    <Name>Avi Malka</Name>
    <Phone>0578150715</Phone>
    <Email>user12@example.com</Email>
    <Role>Regular</Role>
    <IsActive>true</IsActive>
    <DistanceKind>Ground</DistanceKind>
    <Address>Yefet St 190, Jaffa</Address>
    <Latitude>32.0495</Latitude>
    <Longitude>34.7516</Longitude>
  </Volunteer>
  <Volunteer>
    <Id>357114661</Id>
    <Name>Roni Kaplan</Name>
    <Phone>0539595422</Phone>
    <Email>user13@example.com</Email>
    <Role>Regular</Role>
    <IsActive>true</IsActive>
    <DistanceKind>Aerial</DistanceKind>
    <Address>Ben Gurion Blvd 1, Bat Yam</Address>
    <Latitude>32.0226</Latitude>
    <Longitude>34.7458</Longitude>
    <MaxDistance>44</MaxDistance>
  </Volunteer>
  <Volunteer>
    <Id>263265031</Id>
    <Name>Omer Turgeman</Name>
    <Phone>0555534685</Phone>
    <Email>user14@example.com</Email>
    <Role>Regular</Role>
    <IsActive>true</IsActive>
    <DistanceKind>Ground</DistanceKind>
    <Address>Dizengoff St 50, Tel Aviv</Address>
    <Latitude>32.0771</Latitude>
    <Longitude>34.7744</Longitude>
  </Volunteer>
  <Volunteer>
    <Id>262634662</Id>
    <Name>Dana Regev</Name>
    <Phone>0548472381</Phone>
    <Email>user15@example.com</Email>
    <Role>Regular</Role>
    <IsActive>true</IsActive>
    <DistanceKind>Aerial</DistanceKind>
    <Address>Givat Shaul, Jerusalem</Address>
    <Latitude>31.7934</Latitude>
    <Longitude>35.1814</Longitude>
    <MaxDistance>8</MaxDistance>
  </Volunteer>
  <Volunteer>
    <Id>381757449</Id>
    <Name>Yossi Gabay</Name>
    <Phone>0557878687</Phone>
    <Email>user16@example.com</Email>
    <Role>Manager</Role>
    <IsActive>true</IsActive>
    <DistanceKind>Ground</DistanceKind>
    <Address>Golda Meir Blvd, Haifa</Address>
    <Latitude>32.7993</Latitude>
    <Longitude>35.0153</Longitude>
  </Volunteer>
  <Volunteer>
    <Id>329992335</Id>
    <Name>Michal Shani</Name>
    <Phone>0552903523</Phone>
    <Email>user17@example.com</Email>
    <Role>Regular</Role>
    <IsActive>true</IsActive>
    <DistanceKind>Aerial</DistanceKind>
    <Address>Beit HaRishonim, Rishon Lezion</Address>
    <Latitude>31.9638</Latitude>
    <Longitude>34.8038</Longitude>
    <MaxDistance>21</MaxDistance>
  </Volunteer>
  <Volunteer>
    <Id>344228911</Id>
    <Name>Alon Sharabi</Name>
    <Phone>0516051455</Phone>
    <Email>user18@example.com</Email>
    <Role>Regular</Role>
    <IsActive>true</IsActive>
    <DistanceKind>Ground</DistanceKind>
    <Address>HaHistadrut 2, Hadera</Address>
    <Latitude>32.437</Latitude>
    <Longitude>34.9196</Longitude>
  </Volunteer>
  <Volunteer>
    <Id>214512834</Id>
    <Name>Neta Bachar</Name>
    <Phone>0566263514</Phone>
    <Email>user19@example.com</Email>
    <Role>Regular</Role>
    <IsActive>true</IsActive>
    <DistanceKind>Aerial</DistanceKind>
    <Address>HaPalmach St 5, Safed</Address>
    <Latitude>32.9646</Latitude>
    <Longitude>35.4962</Longitude>
    <MaxDistance>4</MaxDistance>
  </Volunteer>
  <Volunteer>
    <Id>308137649</Id>
    <Name>Gili Mizrahi</Name>
    <Phone>0550945041</Phone>
    <Email>user20@example.com</Email>
    <Role>Regular</Role>
    <IsActive>true</IsActive>
    <DistanceKind>Ground</DistanceKind>
    <Address>Keren HaYesod 12, Eilat</Address>
    <Latitude>29.5581</Latitude>
    <Longitude>34.9482</Longitude>
  </Volunteer>
</ArrayOfVolunteer>